{"type":"FeatureCollection","features":[{"type":"Feature","properties":{"id":1,"name":"1369 Coffee House","address":"1369 Cambridge St","city":"Cambridge","state":"MA","zip":"02139"},"geometry":{"type":"Point","coordinates":[-71.10044,42.373695]}},{"type":"Feature","properties":{"id":2,"name":"1369 Coffee House","address":"757 Massachusetts Ave","city":"Cambridge","state":"MA","zip":"02139"},"geometry":{"type":"Point","coordinates":[-71.10543,42.366432]}},{"type":"Feature","properties":{"id":3,"name":"Aceituna Cafe","address":"605 W Kendall St","city":"Cambridge","state":"MA","zip":"02142"},"geometry":{"type":"Point","coordinates":[-71.081924,42.36437]}},{"type":"Feature","properties":{"id":4,"name":"Al's Deli Cafe-Cambridge","address":"1354 Massachusetts Ave","city":"Cambridge","state":"MA","zip":"02138"},"geometry":{"type":"Point","coordinates":[-71.11834,42.373238]}},{"type":"Feature","properties":{"id":5,"name":"Algiers Coffee House","address":"40 Brattle St # 3","city":"Cambridge","state":"MA","zip":"02138"},"geometry":{"type":"Point","coordinates":[-71.12138,42.37384]}},{"type":"Feature","properties":{"id":6,"name":"Area Four","address":"500 Technology Sq","city":"Cambridge","state":"MA","zip":"02139"},"geometry":{"type":"Point","coordinates":[-71.091286,42.36342]}},{"type":"Feature","properties":{"id":7,"name":"B & B Snack Bar","address":"55 Broadway","city":"Cambridge","state":"MA","zip":"02142"},"geometry":{"type":"Point","coordinates":[-71.08602,42.36341]}},{"type":"Feature","properties":{"id":8,"name":"Basha Cafe","address":"26 New St","city":"Cambridge","state":"MA","zip":"02138"},"geometry":{"type":"Point","coordinates":[-71.14083,42.387756]}},{"type":"Feature","properties":{"id":9,"name":"Beantowne Coffee House","address":"1 Kendall Sq # B2105","city":"Cambridge","state":"MA","zip":"02139"},"geometry":{"type":"Point","coordinates":[-71.090858,42.366606]}},{"type":"Feature","properties":{"id":10,"name":"Boston Tea Stop","address":"54 Jfk St # 1","city":"Cambridge","state":"MA","zip":"02138"},"geometry":{"type":"Point","coordinates":[-71.12067,42.37198]}},{"type":"Feature","properties":{"id":11,"name":"Broadway Marketplace LLC","address":"468 Broadway","city":"Cambridge","state":"MA","zip":"02138"},"geometry":{"type":"Point","coordinates":[-71.11313,42.374096]}},{"type":"Feature","properties":{"id":12,"name":"Cafe Avec","address":"2269 Massachusetts Ave # 1","city":"Cambridge","state":"MA","zip":"02140"},"geometry":{"type":"Point","coordinates":[-71.12708,42.39454]}},{"type":"Feature","properties":{"id":13,"name":"Cafe Pamplona","address":"12 Bow St","city":"Cambridge","state":"MA","zip":"02138"},"geometry":{"type":"Point","coordinates":[-71.1157,42.371605]}},{"type":"Feature","properties":{"id":14,"name":"Cafe Zing","address":"25 White St","city":"Cambridge","state":"MA","zip":"02140"},"geometry":{"type":"Point","coordinates":[-71.11851,42.38885]}},{"type":"Feature","properties":{"id":15,"name":"Cambridge Coffee Shop","address":"847 Cambridge St","city":"Cambridge","state":"MA","zip":"02141"},"geometry":{"type":"Point","coordinates":[-71.09102,42.37246]}},{"type":"Feature","properties":{"id":16,"name":"Central Brew Cafe & Espresso","address":"350 Massachusetts Ave","city":"Cambridge","state":"MA","zip":"02139"},"geometry":{"type":"Point","coordinates":[-71.099236,42.36276]}},{"type":"Feature","properties":{"id":17,"name":"Conroy Commons","address":"13 Appian Way","city":"Cambridge","state":"MA","zip":"02138"},"geometry":{"type":"Point","coordinates":[-71.12187,42.375237]}},{"type":"Feature","properties":{"id":18,"name":"Crema Cafe","address":"27 Brattle St","city":"Cambridge","state":"MA","zip":"02138"},"geometry":{"type":"Point","coordinates":[-71.121185,42.37364]}},{"type":"Feature","properties":{"id":19,"name":"Dado Tea","address":"955 Massachusetts Ave # 4","city":"Cambridge","state":"MA","zip":"02139"},"geometry":{"type":"Point","coordinates":[-71.11014,42.36896]}},{"type":"Feature","properties":{"id":20,"name":"Dado Tea 50 Church Street","address":"50 Church St","city":"Cambridge","state":"MA","zip":"02138"},"geometry":{"type":"Point","coordinates":[-71.12072,42.374268]}},{"type":"Feature","properties":{"id":21,"name":"Darwin's Limited","address":"148 Mount Auburn St","city":"Cambridge","state":"MA","zip":"02138"},"geometry":{"type":"Point","coordinates":[-71.124954,42.37409]}},{"type":"Feature","properties":{"id":22,"name":"Darwin's Limited","address":"1629 Cambridge St","city":"Cambridge","state":"MA","zip":"02138"},"geometry":{"type":"Point","coordinates":[-71.1095,42.374847]}},{"type":"Feature","properties":{"id":23,"name":"Discovery Cafe","address":"301 Binney St","city":"Cambridge","state":"MA","zip":"02142"},"geometry":{"type":"Point","coordinates":[-71.08831,42.36659]}},{"type":"Feature","properties":{"id":24,"name":"Dunkin' Donuts","address":"1 Broadway # 2","city":"Cambridge","state":"MA","zip":"02142"},"geometry":{"type":"Point","coordinates":[-71.08262,42.362]}},{"type":"Feature","properties":{"id":25,"name":"Dunkin' Donuts","address":"1 White St","city":"Cambridge","state":"MA","zip":"02140"},"geometry":{"type":"Point","coordinates":[-71.11892,42.38863]}},{"type":"Feature","properties":{"id":26,"name":"Dunkin' Donuts","address":"100 Cambridgeside Pl # 125","city":"Cambridge","state":"MA","zip":"02141"},"geometry":{"type":"Point","coordinates":[-71.076715,42.36858]}},{"type":"Feature","properties":{"id":27,"name":"Dunkin' Donuts","address":"1001 Cambridge St","city":"Cambridge","state":"MA","zip":"02141"},"geometry":{"type":"Point","coordinates":[-71.093704,42.372818]}},{"type":"Feature","properties":{"id":28,"name":"Dunkin' Donuts","address":"1003 Massachusetts Ave","city":"Cambridge","state":"MA","zip":"02138"},"geometry":{"type":"Point","coordinates":[-71.11141,42.369423]}},{"type":"Feature","properties":{"id":29,"name":"Dunkin' Donuts","address":"201 Alewife Brook Pkwy","city":"Cambridge","state":"MA","zip":"02138"},"geometry":{"type":"Point","coordinates":[-71.14297,42.389206]}},{"type":"Feature","properties":{"id":30,"name":"Dunkin' Donuts","address":"222 Broadway","city":"Cambridge","state":"MA","zip":"02139"},"geometry":{"type":"Point","coordinates":[-71.094,42.36653]}},{"type":"Feature","properties":{"id":31,"name":"Dunkin' Donuts","address":"2480 Massachusetts Ave","city":"Cambridge","state":"MA","zip":"02140"},"geometry":{"type":"Point","coordinates":[-71.13211,42.398865]}},{"type":"Feature","properties":{"id":32,"name":"Dunkin' Donuts","address":"5 3rd St","city":"Cambridge","state":"MA","zip":"02141"},"geometry":{"type":"Point","coordinates":[-71.07953,42.37242]}},{"type":"Feature","properties":{"id":33,"name":"Dunkin' Donuts","address":"5 Cambridgepark Dr # 3","city":"Cambridge","state":"MA","zip":"02140"},"geometry":{"type":"Point","coordinates":[-71.14183,42.39465]}},{"type":"Feature","properties":{"id":34,"name":"Dunkin' Donuts","address":"517 Concord Ave","city":"Cambridge","state":"MA","zip":"02138"},"geometry":{"type":"Point","coordinates":[-71.1415,42.387127]}},{"type":"Feature","properties":{"id":35,"name":"Dunkin' Donuts","address":"61 Church St","city":"Cambridge","state":"MA","zip":"02138"},"geometry":{"type":"Point","coordinates":[-71.12106,42.37413]}},{"type":"Feature","properties":{"id":36,"name":"Dunkin' Donuts","address":"616 Massachusetts Ave","city":"Cambridge","state":"MA","zip":"02139"},"geometry":{"type":"Point","coordinates":[-71.10325,42.365105]}},{"type":"Feature","properties":{"id":37,"name":"Dunkin' Donuts","address":"65 Jfk St","city":"Cambridge","state":"MA","zip":"02138"},"geometry":{"type":"Point","coordinates":[-71.12099,42.371624]}},{"type":"Feature","properties":{"id":38,"name":"Dunkin' Donuts","address":"808 Memorial Dr","city":"Cambridge","state":"MA","zip":"02139"},"geometry":{"type":"Point","coordinates":[-71.11589,42.36088]}},{"type":"Feature","properties":{"id":39,"name":"Dunkin' Donuts","address":"84 Massachusetts Ave # W 20","city":"Cambridge","state":"MA","zip":"02139"},"geometry":{"type":"Point","coordinates":[-71.0942,42.359676]}},{"type":"Feature","properties":{"id":40,"name":"Dunkin' Donuts","address":"Harvard Mbta Sta","city":"Cambridge","state":"MA","zip":"02163"},"geometry":{"type":"Point","coordinates":[-71.12099,42.371624]}},{"type":"Feature","properties":{"id":41,"name":"Dwell Time","address":"364 Broadway","city":"Cambridge","state":"MA","zip":"02139"},"geometry":{"type":"Point","coordinates":[-71.10432,42.370617]}},{"type":"Feature","properties":{"id":42,"name":"Expresso Cafe","address":"201 Broadway","city":"Cambridge","state":"MA","zip":"02139"},"geometry":{"type":"Point","coordinates":[-71.093605,42.366386]}},{"type":"Feature","properties":{"id":43,"name":"Fort Point Tea Co","address":"26 Alewife Brook Pkwy","city":"Cambridge","state":"MA","zip":"02140"},"geometry":{"type":"Point","coordinates":[-71.13474,42.402267]}},{"type":"Feature","properties":{"id":44,"name":"Harvard Dining Svc","address":"12 Quincy St","city":"Cambridge","state":"MA","zip":"02138"},"geometry":{"type":"Point","coordinates":[-71.114914,42.37314]}},{"type":"Feature","properties":{"id":45,"name":"Hub Donuts Inc","address":"199 Alewife Brook Pkwy","city":"Cambridge","state":"MA","zip":"02138"},"geometry":{"type":"Point","coordinates":[-71.14265,42.38961]}},{"type":"Feature","properties":{"id":46,"name":"Hub Donuts Inc","address":"517 Concord Ave","city":"Cambridge","state":"MA","zip":"02138"},"geometry":{"type":"Point","coordinates":[-71.1415,42.387127]}},{"type":"Feature","properties":{"id":47,"name":"Kendall Kitchen","address":"201 Broadway # 25","city":"Cambridge","state":"MA","zip":"02139"},"geometry":{"type":"Point","coordinates":[-71.093605,42.366386]}},{"type":"Feature","properties":{"id":48,"name":"LA Luna Caffe","address":"403 Massachusetts Ave","city":"Cambridge","state":"MA","zip":"02139"},"geometry":{"type":"Point","coordinates":[-71.10064,42.36359]}},{"type":"Feature","properties":{"id":49,"name":"Mariposa Bakery","address":"424 Massachusetts Ave","city":"Cambridge","state":"MA","zip":"02139"},"geometry":{"type":"Point","coordinates":[-71.10082,42.363686]}},{"type":"Feature","properties":{"id":50,"name":"Museum Market","address":"12 Museum Way","city":"Cambridge","state":"MA","zip":"02141"},"geometry":{"type":"Point","coordinates":[-71.07228,42.36886]}},{"type":"Feature","properties":{"id":51,"name":"Sebastians","address":"7 Cambridge Ctr","city":"Cambridge","state":"MA","zip":"02142"},"geometry":{"type":"Point","coordinates":[-71.088774,42.362997]}},{"type":"Feature","properties":{"id":52,"name":"Darwin's Limited","address":"245 Massachusetts Ave","city":"Cambridge","state":"MA","zip":"02139"},"geometry":{"type":"Point","coordinates":[-71.097305,42.361603]}},{"type":"Feature","properties":{"id":53,"name":"Peet's Coffee & Tea","address":"100 Mount Auburn St","city":"Cambridge","state":"MA","zip":"02138"},"geometry":{"type":"Point","coordinates":[-71.120735,42.3728]}},{"type":"Feature","properties":{"id":54,"name":"Plaza Catering","address":"157 6th St","city":"Cambridge","state":"MA","zip":"02142"},"geometry":{"type":"Point","coordinates":[-71.08598,42.366653]}},{"type":"Feature","properties":{"id":55,"name":"Qafe","address":"58 Plympton St","city":"Cambridge","state":"MA","zip":"02138"},"geometry":{"type":"Point","coordinates":[-71.11726,42.371063]}},{"type":"Feature","properties":{"id":56,"name":"R J Gourmet","address":"441 Cambridge St","city":"Cambridge","state":"MA","zip":"02141"},"geometry":{"type":"Point","coordinates":[-71.0835,42.371494]}},{"type":"Feature","properties":{"id":57,"name":"Simon's Too","address":"983 Massachusetts Ave","city":"Cambridge","state":"MA","zip":"02138"},"geometry":{"type":"Point","coordinates":[-71.110695,42.369167]}},{"type":"Feature","properties":{"id":58,"name":"Singa Bella Cafe","address":"2401 Massachusetts Ave","city":"Cambridge","state":"MA","zip":"02140"},"geometry":{"type":"Point","coordinates":[-71.13006,42.397156]}},{"type":"Feature","properties":{"id":59,"name":"Starbucks","address":"100 Cambridgeside Pl # 153","city":"Cambridge","state":"MA","zip":"02141"},"geometry":{"type":"Point","coordinates":[-71.076121,42.367463]}},{"type":"Feature","properties":{"id":60,"name":"Starbucks","address":"114 Bishop Richard Allen Dr","city":"Cambridge","state":"MA","zip":"02139"},"geometry":{"type":"Point","coordinates":[-71.10289,42.36617]}},{"type":"Feature","properties":{"id":61,"name":"Starbucks","address":"1384 Massachusetts Ave","city":"Cambridge","state":"MA","zip":"02138"},"geometry":{"type":"Point","coordinates":[-71.118866,42.373714]}},{"type":"Feature","properties":{"id":62,"name":"Starbucks","address":"6 Cambridge Ctr","city":"Cambridge","state":"MA","zip":"02142"},"geometry":{"type":"Point","coordinates":[-71.087937,42.363893]}},{"type":"Feature","properties":{"id":63,"name":"Starbucks","address":"220 Alewife Brook Pkwy","city":"Cambridge","state":"MA","zip":"02138"},"geometry":{"type":"Point","coordinates":[-71.14286,42.38805]}},{"type":"Feature","properties":{"id":64,"name":"Starbucks","address":"31 Church St","city":"Cambridge","state":"MA","zip":"02138"},"geometry":{"type":"Point","coordinates":[-71.12038,42.374393]}},{"type":"Feature","properties":{"id":65,"name":"Starbucks","address":"36 Jfk St # 10","city":"Cambridge","state":"MA","zip":"02138"},"geometry":{"type":"Point","coordinates":[-71.11998,42.37278]}},{"type":"Feature","properties":{"id":66,"name":"Starbucks","address":"468 Broadway # 1","city":"Cambridge","state":"MA","zip":"02138"},"geometry":{"type":"Point","coordinates":[-71.11313,42.374096]}},{"type":"Feature","properties":{"id":67,"name":"Starbucks","address":"2 Cambridge Ctr","city":"Cambridge","state":"MA","zip":"02142"},"geometry":{"type":"Point","coordinates":[-71.08598,42.3629]}},{"type":"Feature","properties":{"id":68,"name":"Starbucks","address":"655 Massachusetts Ave","city":"Cambridge","state":"MA","zip":"02139"},"geometry":{"type":"Point","coordinates":[-71.10389,42.36553]}},{"type":"Feature","properties":{"id":69,"name":"Starbucks","address":"750 Memorial Dr","city":"Cambridge","state":"MA","zip":"02139"},"geometry":{"type":"Point","coordinates":[-71.115295,42.35772]}},{"type":"Feature","properties":{"id":70,"name":"Sunset Cafe Inc","address":"851 Cambridge St","city":"Cambridge","state":"MA","zip":"02141"},"geometry":{"type":"Point","coordinates":[-71.09108,42.372467]}},{"type":"Feature","properties":{"id":71,"name":"Sweet Touch Cafe","address":"241 Cambridge St","city":"Cambridge","state":"MA","zip":"02141"},"geometry":{"type":"Point","coordinates":[-71.080154,42.371063]}},{"type":"Feature","properties":{"id":72,"name":"Tasin & Coffee Express","address":"766 Cambridge St","city":"Cambridge","state":"MA","zip":"02141"},"geometry":{"type":"Point","coordinates":[-71.08952,42.372257]}},{"type":"Feature","properties":{"id":73,"name":"Tealuxe","address":"0 Brattle St","city":"Cambridge","state":"MA","zip":"02138"},"geometry":{"type":"Point","coordinates":[-71.120834,42.373253]}},{"type":"Feature","properties":{"id":74,"name":"Teavana","address":"100 Cambridgeside Pl # E206","city":"Cambridge","state":"MA","zip":"02141"},"geometry":{"type":"Point","coordinates":[-71.0766,42.367104]}},{"type":"Feature","properties":{"id":75,"name":"Tisan Coffee Express","address":"1722 Massachusetts Ave","city":"Cambridge","state":"MA","zip":"02138"},"geometry":{"type":"Point","coordinates":[-71.11955,42.384068]}},{"type":"Feature","properties":{"id":76,"name":"Tisan Coffee Express","address":"766 Cambridge St # A","city":"Cambridge","state":"MA","zip":"02141"},"geometry":{"type":"Point","coordinates":[-71.08952,42.372257]}},{"type":"Feature","properties":{"id":77,"name":"Verna's Donut Shop","address":"2344 Massachusetts Ave","city":"Cambridge","state":"MA","zip":"02140"},"geometry":{"type":"Point","coordinates":[-71.128845,42.39609]}},{"type":"Feature","properties":{"id":78,"name":"Voltage Coffee & Art","address":"295 3rd St","city":"Cambridge","state":"MA","zip":"02142"},"geometry":{"type":"Point","coordinates":[-71.08267,42.36528]}},{"type":"Feature","properties":{"id":79,"name":"Wu Healing Ctr","address":"740 Cambridge St","city":"Cambridge","state":"MA","zip":"02141"},"geometry":{"type":"Point","coordinates":[-71.08914,42.372208]}}]}